City_ID,City,Lat,Lng,Max Temp,Humidity,Cloudiness,Wind Speed,Country,Date
0,ushuaia,-54.8,-68.3,7.810000000000002,71,0,4.12,AR,1709514381
1,adamstown,-25.066,-130.1015,24.840000000000032,69,2,6.89,PN,1709514648
2,isiro,2.7739,27.616,21.060000000000002,90,38,1.57,CD,1709514648
3,dongola,19.1667,30.4833,19.090000000000032,14,87,4.85,SD,1709514648
4,arnedo,42.2167,-2.1,2.7200000000000273,82,17,2.01,ES,1709514648
5,tura,25.5198,90.2201,18.470000000000027,60,17,0.44,IN,1709514649
6,invercargill,-46.4,168.35,15.57000000000005,53,70,4.92,NZ,1709514649
7,grytviken,-54.2811,-36.5092,2.590000000000032,85,100,5.36,GS,1709514649
8,utrik,11.2278,169.8474,26.660000000000025,77,100,10.0,MH,1709514649
9,wailua homesteads,22.0669,-159.378,26.24000000000001,77,75,10.8,US,1709514649
10,longyearbyen,78.2186,15.6401,-0.08999999999997499,80,75,5.66,SJ,1709514649
11,hermanus,-34.4187,19.2345,19.890000000000043,88,100,2.59,ZA,1709514649
12,arkalyk,50.2486,66.9114,-16.21999999999997,100,100,4.51,KZ,1709514650
13,xining,36.6167,101.7667,1.5200000000000387,47,61,1.71,CN,1709514650
14,san jose de jachal,-30.2406,-68.7469,22.840000000000032,33,100,2.32,AR,1709514650
15,puerto ayora,-0.7393,-90.3518,26.420000000000016,91,11,1.79,EC,1709514650
16,williams lake,52.1415,-122.1445,-9.96999999999997,68,100,0.89,CA,1709514650
17,mejit,10.2753,170.8646,26.83000000000004,79,100,10.02,MH,1709514651
18,san patricio,28.017,-97.5169,23.400000000000034,93,26,4.34,US,1709514651
19,happy valley-goose bay,53.3168,-60.3315,-15.849999999999966,83,8,2.93,CA,1709514651
20,college,64.8569,-147.8028,-10.819999999999993,40,75,2.57,US,1709514651
21,luwuk,-0.9516,122.7875,29.460000000000036,72,95,0.87,ID,1709514651
22,ribeira grande,38.5167,-28.7,12.650000000000034,63,95,1.34,PT,1709514651
23,taldykorgan,45.0156,78.3739,-11.5,74,9,2.51,KZ,1709514652
24,wrzesnia,52.3251,17.5652,8.080000000000041,81,79,5.11,PL,1709514652
25,port mathurin,-19.6833,63.4167,26.430000000000007,84,35,8.31,MU,1709514652
26,east london,-33.0153,27.9116,22.480000000000018,90,100,7.07,ZA,1709514652
27,vadso,70.0744,29.7487,-1.509999999999991,80,89,2.57,NO,1709514652
28,sitka,57.0531,-135.33,-4.060000000000002,39,0,5.14,US,1709514503
29,rasinari,45.7,24.0667,0.0,86,0,1.03,RO,1709514652
30,fale old settlement,-9.3852,-171.2468,28.920000000000016,75,18,4.27,TK,1709514653
31,rio grande,-32.035,-52.0986,18.860000000000014,65,100,6.01,BR,1709514653
32,lebu,-37.6167,-73.65,13.170000000000016,79,0,10.26,CL,1709514653
33,luderitz,-26.6481,15.1594,16.83000000000004,93,99,4.7,NA,1709514653
34,sena madureira,-9.0656,-68.6569,23.82000000000005,98,98,1.03,BR,1709514653
35,maracacume,-2.0428,-45.9592,23.54000000000002,97,100,1.08,BR,1709514654
36,chimbote,-9.0853,-78.5783,23.180000000000007,81,86,3.07,PE,1709514654
37,ancud,-41.8697,-73.8203,10.78000000000003,78,11,1.72,CL,1709514654
38,bethel,41.3712,-73.414,13.340000000000032,77,0,2.06,US,1709514561
39,sajir,25.1825,44.5996,16.010000000000048,26,0,4.02,SA,1709514654
40,machico,32.7,-16.7667,17.350000000000023,71,75,1.54,PT,1709514654
41,jamestown,42.097,-79.2353,6.920000000000016,87,74,1.34,US,1709514422
42,togur,58.3631,82.8265,-7.139999999999986,94,100,4.02,RU,1709514655
43,waitangi,-43.9535,-176.5597,18.79000000000002,93,100,10.58,NZ,1709514655
44,polyarnyy,69.1989,33.4478,-0.7699999999999818,84,98,5.07,RU,1709514655
45,port-aux-francais,-49.35,70.2167,5.980000000000018,78,9,18.44,TF,1709514655
46,edinburgh of the seven seas,-37.0676,-12.3116,17.670000000000016,91,99,17.15,SH,1709514655
47,port alfred,-33.5906,26.891,19.54000000000002,99,75,0.89,ZA,1709514655
48,margaret river,-33.95,115.0667,19.650000000000034,81,99,5.65,AU,1709514612
49,aykhal,66.0,111.5,-20.019999999999982,100,100,1.08,RU,1709514656
50,camabatela,-8.1881,15.375,17.5,100,96,1.31,AO,1709514656
51,puerto deseado,-47.7503,-65.8938,10.960000000000036,61,0,11.15,AR,1709514656
52,candelaria,13.9311,121.4233,25.77000000000004,71,57,3.35,PH,1709514656
53,amga,60.8953,131.9608,-18.599999999999966,91,99,1.47,RU,1709514656
54,al artawiyah,26.5053,45.3444,14.740000000000009,32,0,4.28,SA,1709514657
55,arraial do cabo,-22.9661,-42.0278,25.010000000000048,86,0,6.72,BR,1709514657
56,poronaysk,49.2167,143.1167,-10.039999999999964,76,90,0.72,RU,1709514657
57,anatuya,-28.4606,-62.8347,18.57000000000005,96,100,3.35,AR,1709514657
58,thompson,55.7435,-97.8558,-15.479999999999961,86,100,7.72,CA,1709514657
59,ilulissat,69.2167,-51.1,-9.989999999999952,44,75,6.17,GL,1709514657
60,dolores,-36.3132,-57.6792,14.620000000000005,36,0,1.6,AR,1709514658
61,tchintabaraden,15.8969,5.7985,23.950000000000045,12,27,0.66,NE,1709514658
62,iskateley,67.6803,53.1512,-6.659999999999968,95,100,7.15,RU,1709514658
63,papatowai,-46.5619,169.4708,13.920000000000016,52,100,3.52,NZ,1709514658
64,yellowknife,62.456,-114.3525,-28.73999999999998,96,94,0.65,CA,1709514489
65,usol'ye,59.4268,56.6808,-0.5199999999999818,96,100,3.7,RU,1709514658
66,namibe,-15.1961,12.1522,23.120000000000005,82,13,2.18,AO,1709514658
67,mount pearl,47.5166,-52.7813,4.520000000000039,96,100,9.77,CA,1709514659
68,enewetak,11.3474,162.3373,26.450000000000045,83,54,9.76,MH,1709514659
69,tralee,52.2704,-9.7026,4.910000000000025,89,100,3.45,IE,1709514659
70,olonkinbyen,70.9221,-8.7187,-0.15999999999996817,86,16,5.69,SJ,1709514659
71,siracusa,37.0881,15.2792,14.060000000000002,71,100,3.25,IT,1709514659
72,bilibino,68.0546,166.4372,-15.759999999999991,91,99,0.94,RU,1709514603
73,chibougamau,49.9168,-74.3659,-9.279999999999973,80,52,3.29,CA,1709514659
74,stanley,54.868,-1.6985,-0.44999999999998863,96,0,0.51,GB,1709514660
75,ketchikan,55.3422,-131.6461,-0.7399999999999523,37,75,3.09,US,1709514427
76,bubaque,11.2833,-15.8333,26.189999999999998,69,85,2.43,GW,1709514660
77,akureyri,65.6835,-18.0878,0.4200000000000159,98,100,2.1,IS,1709514660
78,nova sintra,14.8667,-24.7167,20.0,74,1,4.45,CV,1709514660
79,albany,42.6001,-73.9662,9.240000000000009,87,95,1.9,US,1709514524
80,la passe,45.5549,-0.8967,2.1299999999999955,71,6,1.63,FR,1709514660
81,alvand,36.3187,49.1678,-0.7999999999999545,93,100,1.15,IR,1709514660
82,battagram,34.6772,73.0233,1.0200000000000387,75,14,3.05,PK,1709514661
83,lively,46.4334,-81.1498,2.9700000000000273,96,100,3.1,CA,1709514661
84,sretensk,52.2453,117.7093,-19.139999999999986,92,97,1.0,RU,1709514661
85,dhidhdhoo,6.8833,73.1,28.0,73,49,4.21,MV,1709514661
86,sarykemer,43.0,71.5,-2.2899999999999636,83,17,1.04,KZ,1709514661
87,hasaki,35.7333,140.8333,11.270000000000039,41,0,6.18,JP,1709514661
88,minas de marcona,-15.2119,-75.1103,19.54000000000002,83,58,5.6,PE,1709514662
89,tiksi,71.6872,128.8694,-19.079999999999984,99,100,2.66,RU,1709514662
90,sao joao da barra,-21.6403,-41.0511,24.090000000000032,84,5,2.66,BR,1709514662
91,ujae,8.9322,165.7642,27.120000000000005,75,100,10.13,MH,1709514662
92,fomboni,-12.28,43.7425,28.07000000000005,74,100,1.87,KM,1709514662
93,hammerfest,70.6634,23.6821,1.25,93,100,1.03,NO,1709514662
94,darhan,49.4867,105.9228,-20.74999999999997,99,100,1.63,MN,1709514663
95,puerto natales,-51.7236,-72.4875,8.120000000000005,95,99,1.75,CL,1709514663
96,muisne,0.6,-80.0333,25.230000000000018,88,78,1.95,EC,1709514663
97,talnakh,69.4865,88.3972,-11.549999999999955,93,100,5.93,RU,1709514663
98,canete,-37.8,-73.4,13.020000000000039,69,1,3.92,CL,1709514663
99,uturoa,-16.7333,-151.4333,28.860000000000014,76,100,7.82,PF,1709514663
100,port elizabeth,-33.918,25.5701,22.28000000000003,98,21,2.24,ZA,1709514664
101,atafu village,-8.5421,-172.5159,29.060000000000002,74,92,4.36,TK,1709514664
102,gondar,12.6,37.4667,16.140000000000043,30,100,1.62,ET,1709514665
103,miles city,46.4083,-105.8406,-6.4599999999999795,73,0,4.12,US,1709514666
104,belle fourche,44.6714,-103.8522,2.5,39,93,6.14,US,1709514666
105,nicoya,10.1483,-85.452,26.620000000000005,64,28,0.21,CR,1709514666
106,alghero,40.5589,8.3181,10.050000000000011,71,40,6.69,IT,1709514667
107,punta arenas,-53.15,-70.9167,8.060000000000002,76,0,2.06,CL,1709514667
108,blackmans bay,-43.0167,147.3167,14.740000000000009,51,37,1.34,AU,1709514667
109,verwood,50.8758,-1.8702,3.6899999999999977,94,13,1.34,GB,1709514667
110,gadzhiyevo,69.2551,33.3362,-0.14999999999997726,82,100,5.27,RU,1709514667
111,ust'-kut,56.7938,105.7672,-16.909999999999968,96,100,1.49,RU,1709514668
112,amasra,41.7463,32.3863,8.810000000000002,78,100,0.53,TR,1709514668
113,quepos,9.4236,-84.1652,26.30000000000001,76,21,1.0,CR,1709514668
114,vilyuysk,63.7553,121.6247,-17.21999999999997,97,100,2.24,RU,1709514668
115,saldanha,-33.0117,17.9442,17.180000000000007,96,56,6.47,ZA,1709514669
116,coquimbo,-29.9533,-71.3436,18.30000000000001,83,100,1.37,CL,1709514589
117,krasnogorskiy,54.6025,61.231,-3.7299999999999613,89,100,3.81,RU,1709514669
118,katsuura,35.1333,140.3,11.860000000000014,57,2,11.09,JP,1709514669
119,lampasas,31.2168,-98.2336,23.49000000000001,64,0,3.6,US,1709514449
120,mohale's hoek,-30.1514,27.4769,19.28000000000003,52,94,2.85,LS,1709514670
121,olyokminsk,60.3736,120.4264,-14.069999999999993,91,100,3.01,RU,1709514670
122,dryden,49.7833,-92.7503,-5.839999999999975,93,100,8.23,CA,1709514671
123,escarcega,18.6089,-90.7454,28.200000000000045,53,24,1.87,MX,1709514671
124,kavaratti,10.5669,72.642,27.890000000000043,72,56,4.38,IN,1709514671
125,castillos,-34.1667,-53.8333,15.270000000000039,62,100,2.38,UY,1709514672
126,bel ombre,-4.6167,55.4167,28.629999999999995,70,14,3.5,SC,1709514672
127,sao paulo de olivenca,-3.3783,-68.8725,22.890000000000043,94,44,0.91,BR,1709514672
128,boromo,11.75,-2.9333,31.78000000000003,44,99,2.32,BF,1709514672
129,antsiranana,-12.2787,49.2917,23.650000000000034,92,100,0.78,MG,1709514672
130,vilyuchinsk,52.9306,158.4028,-0.8499999999999659,65,100,5.54,RU,1709514673
131,le port,-20.9373,55.2919,26.0,81,100,4.17,RE,1709514673
132,gaalkacyo,6.7697,47.4308,23.970000000000027,88,100,6.35,SO,1709514673
133,whitehorse,60.7161,-135.0538,-15.549999999999955,46,21,1.34,CA,1709514673
134,mount isa,-20.7333,139.5,32.870000000000005,49,11,3.6,AU,1709514673
135,egilsstadir,65.2653,-14.3948,2.0600000000000023,99,100,3.35,IS,1709514674
136,toliara,-23.35,43.6667,25.610000000000014,71,70,1.59,MG,1709514674
137,qaqortoq,60.7167,-46.0333,-15.019999999999982,66,99,5.94,GL,1709514676
138,berd,40.8815,45.3899,1.5200000000000387,81,100,0.53,AM,1709514676
139,paradip garh,20.3167,86.6167,24.04000000000002,81,100,1.7,IN,1709514676
140,okhotsk,59.3833,143.3,-10.289999999999964,90,99,3.75,RU,1709514677
141,port alberni,49.2413,-124.8028,5.520000000000039,85,97,1.79,CA,1709514677
142,quellon,-43.1167,-73.6167,10.050000000000011,84,6,4.13,CL,1709514677
143,vrangel',42.7297,133.0839,-3.609999999999957,42,0,7.44,RU,1709514679
144,isafjordur,66.0755,-23.124,-3.4899999999999523,61,100,1.78,IS,1709514681
145,kodiak,57.79,-152.4072,-0.2699999999999818,80,100,1.54,US,1709514681
146,stephenville,32.2207,-98.2023,24.07000000000005,54,0,3.6,US,1709514683
147,arkhangel'sk,64.5401,40.5433,0.07000000000005002,100,100,6.0,RU,1709514684
148,talcahuano,-36.7167,-73.1167,14.730000000000018,68,0,5.13,CL,1709514684
149,manakara,-22.1333,48.0167,23.730000000000018,89,100,1.66,MG,1709514684
150,kristiansund,63.1115,7.732,11.360000000000014,54,100,5.66,NO,1709514685
151,esquel,-42.9,-71.3167,10.850000000000023,77,0,2.49,AR,1709514568
152,san antonio de pale,-1.4014,5.6325,28.32000000000005,78,100,1.4,GQ,1709514685
153,paris,48.8534,2.3488,4.520000000000039,89,0,3.09,FR,1709514662
154,brattleboro,42.8509,-72.5579,9.610000000000014,83,15,0.89,US,1709514686
155,lompoc,34.6391,-120.4579,15.560000000000002,65,40,4.63,US,1709514686
156,chonchi,-42.6128,-73.8092,11.730000000000018,86,7,1.6,CL,1709514687
157,qamdo,31.1667,97.2333,-4.7999999999999545,57,2,2.58,CN,1709514687
158,rio preto da eva,-2.6994,-59.6997,23.840000000000032,97,100,0.54,BR,1709514687
159,vorgashor,67.5833,63.95,-26.819999999999965,100,100,2.72,RU,1709514687
160,peace river,56.2501,-117.286,-18.20999999999998,85,100,5.2,CA,1709514587
161,ust-nera,64.5667,143.2,-18.769999999999982,94,99,1.68,RU,1709514688
162,hilo,19.7297,-155.09,21.450000000000045,99,100,4.12,US,1709514688
163,saudarkrokur,65.7461,-19.6394,-4.949999999999989,74,100,0.68,IS,1709514688
164,sisimiut,66.9395,-53.6735,-11.909999999999968,66,86,6.09,GL,1709514688
165,acarau,-2.8856,-40.12,26.390000000000043,82,51,2.16,BR,1709514688
166,rainbow city,33.9548,-86.0419,19.879999999999995,93,20,0.0,US,1709514689
167,coahuayana de hidalgo,18.7,-103.6583,23.310000000000002,69,82,1.86,MX,1709514689
168,copala,16.65,-98.9833,26.100000000000023,58,65,2.53,MX,1709514689
169,celestun,20.8667,-90.4,25.02000000000004,82,6,6.18,MX,1709514689
170,piste,20.7,-88.5833,28.460000000000036,56,61,4.12,MX,1709514689
171,kayangel,8.0823,134.7173,27.189999999999998,82,100,9.29,PW,1709514689
172,volchikha,52.0333,80.3833,-11.519999999999982,93,100,6.29,RU,1709514690
173,siwa oasis,29.2041,25.5195,16.32000000000005,29,39,1.62,EG,1709514690
174,kamina,-8.7386,24.9906,18.810000000000002,96,100,0.89,CD,1709514690
175,pisco,-13.7,-76.2167,24.03000000000003,83,0,7.2,PE,1709514690
176,zaozersk,69.4005,32.4476,-2.2299999999999613,93,97,2.18,RU,1709514690
177,colonia,50.9333,6.95,9.970000000000027,84,100,5.66,DE,1709514690
178,georgetown,5.4112,100.3354,27.960000000000036,78,20,0.51,MY,1709514609
179,kerikeri,-35.2268,173.9474,21.620000000000005,91,100,0.89,NZ,1709514691
180,fort bragg,35.139,-79.006,17.680000000000007,89,0,1.54,US,1709514691
181,saint-philippe,-21.3585,55.7679,25.77000000000004,84,99,3.84,RE,1709514691
182,nema,57.5067,50.5011,-1.5499999999999545,93,100,3.87,RU,1709514691
183,vila franca do campo,37.7167,-25.4333,13.230000000000018,73,100,5.75,PT,1709514691
184,kidal,18.4411,1.4078,27.08000000000004,9,80,5.41,ML,1709514691
185,vorkuta,67.5,64.0,-26.409999999999968,100,100,3.12,RU,1709514692
186,bredasdorp,-34.5322,20.0403,19.310000000000002,95,100,3.08,ZA,1709514692
187,haiku-pauwela,20.9219,-156.3051,25.010000000000048,76,40,7.72,US,1709514692
188,roxas,11.5853,122.7511,26.189999999999998,74,79,4.75,PH,1709514692
189,mount gambier,-37.8333,140.7667,19.939999999999998,40,0,4.46,AU,1709514512
190,inari,68.906,27.0288,0.11000000000001364,92,100,1.11,FI,1709514692
191,dukhovnitskoye,52.4828,48.2137,-10.859999999999957,99,100,0.68,RU,1709514692
192,fortuna,40.5982,-124.1573,9.25,93,75,0.89,US,1709514693
193,jianshui,23.6363,102.8264,18.5,37,4,3.3,CN,1709514693
194,noshiro,40.2039,140.0242,1.7900000000000205,60,100,8.44,JP,1709514693
195,afif,23.9065,42.9172,15.430000000000007,31,0,3.43,SA,1709514693
196,neelankarai,12.9455,80.2575,24.03000000000003,88,20,1.03,IN,1709514693
197,hadibu,12.65,54.0333,24.5,76,94,3.22,YE,1709514694
198,ponta delgada,37.7333,-25.6667,13.400000000000034,67,40,4.12,PT,1709514694
199,solleftea,63.1667,17.2667,-0.07999999999998408,100,100,0.75,SE,1709514694
200,ramos arizpe,25.55,-100.9667,23.510000000000048,22,75,0.0,MX,1709514694
201,taro,-8.3862,115.28,25.0,86,83,0.32,ID,1709514694
202,belmonte,-15.8631,-38.8828,25.74000000000001,88,19,1.87,BR,1709514694
203,progreso,21.2833,-89.6667,29.060000000000002,86,32,4.79,MX,1709514695
204,manacapuru,-3.2997,-60.6206,25.350000000000023,81,97,0.41,BR,1709514695
205,hawaiian paradise park,19.5933,-154.9731,21.129999999999995,97,100,4.12,US,1709514695
206,lihue,21.9789,-159.3672,26.58000000000004,78,75,10.8,US,1709514695
207,fort mcmurray,56.7268,-111.381,-15.569999999999993,96,100,3.7,CA,1709514415
208,sylhet,24.5,91.6667,18.810000000000002,62,13,2.18,BD,1709514640
209,ormara,25.2088,64.6357,16.0,29,0,3.82,PK,1709514696
210,zima,53.9202,102.0442,-22.23999999999998,100,91,1.43,RU,1709514696
211,an nuhud,12.7,28.4333,20.720000000000027,14,6,5.21,SD,1709514696
212,avarua,-21.2078,-159.775,30.03000000000003,74,75,6.69,CK,1709514696
213,sona,45.4388,10.8255,10.830000000000041,84,75,7.2,IT,1709514696
214,skeldon,5.8833,-57.1333,25.170000000000016,85,100,2.78,GY,1709514697
215,xilin hot,43.9667,116.0333,-11.839999999999975,74,100,1.52,CN,1709514697
216,praia da vitoria,38.7333,-27.0667,12.640000000000043,73,90,7.54,PT,1709514697
217,hamilton,39.1834,-84.5333,15.350000000000023,75,0,4.12,US,1709514484
218,flying fish cove,-10.4217,105.6791,28.82000000000005,83,75,2.57,CX,1709514697
219,otjimbingwe,-22.35,16.1333,23.07000000000005,41,1,1.34,NA,1709514698
220,amursk,50.2261,136.8994,-15.009999999999991,88,100,3.62,RU,1709514698
221,carnarvon,-24.8667,113.6333,24.850000000000023,68,63,8.15,AU,1709514698
222,west island,-12.1568,96.8225,27.810000000000002,81,100,8.33,CC,1709514699
223,klaksvik,62.2266,-6.589,6.510000000000048,86,100,10.35,FO,1709514699
224,susuman,62.7833,148.1667,-19.44999999999999,94,100,1.34,RU,1709514700
225,silver city,32.7701,-108.2803,12.980000000000018,33,0,4.63,US,1709514518
226,selkirk,50.1436,-96.8845,-0.46999999999997044,95,100,4.47,CA,1709514700
227,soe,-9.8607,124.284,25.79000000000002,73,79,0.42,ID,1709514701
228,gorontalo,0.5412,123.0595,29.28000000000003,69,100,0.88,ID,1709514702
229,puerto armuelles,8.2833,-82.8667,28.379999999999995,64,17,0.45,PA,1709514702
230,pacific grove,36.6177,-121.9166,12.590000000000032,80,100,7.6,US,1709514702
231,champerico,14.3,-91.9167,27.480000000000018,66,1,4.14,GT,1709514702
232,sinabang,2.4803,96.3801,27.0,80,100,1.26,ID,1709514703
233,scappoose,45.7543,-122.8776,5.2900000000000205,89,75,1.54,US,1709514703
234,rujiena,57.8975,25.3316,-0.40999999999996817,89,5,2.2,LV,1709514703
235,kyren,51.6828,102.1408,-15.589999999999975,98,51,0.89,RU,1709514704
236,zabol,32.25,67.25,-3.3899999999999864,67,6,1.38,AF,1709514704
237,acapulco de juarez,16.8634,-99.8901,27.900000000000034,74,0,4.63,MX,1709514496
238,cabo san lucas,22.8909,-109.9124,24.230000000000018,64,20,2.06,MX,1709514605
239,lata,40.1629,-8.3327,13.050000000000011,78,99,2.72,PT,1709514705
240,cockburn town,21.4612,-71.1419,24.650000000000034,80,95,10.0,TC,1709514705
241,caleta de carquin,-11.0925,-77.6267,24.160000000000025,80,24,4.34,PE,1709514705
242,al ghayzah,16.2079,52.176,23.650000000000034,67,74,3.38,YE,1709514706
243,yashkul',46.1711,45.3435,-0.5299999999999727,78,10,5.13,RU,1709514706
244,katsuren-haebaru,26.3369,127.8719,22.430000000000007,85,100,4.63,JP,1709514706
245,metkovic,43.0542,17.6483,10.260000000000048,84,100,2.39,HR,1709514707
246,meizhou,24.2977,116.1072,16.100000000000023,81,93,2.03,CN,1709514707
247,bafoulabe,13.8065,-10.8321,29.260000000000048,10,97,2.35,ML,1709514708
248,tenenkou,14.4572,-4.9169,26.760000000000048,11,6,5.07,ML,1709514708
249,kish,26.5578,54.0194,19.52000000000004,54,93,7.23,IR,1709514708
250,valparaiso,-33.0393,-71.6273,16.80000000000001,72,0,2.57,CL,1709514498
251,tchollire,8.4022,14.1698,27.620000000000005,15,92,1.42,CM,1709514709
252,tamanrasset,22.785,5.5228,13.950000000000045,10,0,2.06,DZ,1709514709
253,wenchang,30.904,118.4887,9.900000000000034,84,100,1.21,CN,1709514709
254,iqaluit,63.7506,-68.5145,-31.71999999999997,91,40,3.86,CA,1709514709
255,sur,22.5667,59.5289,19.210000000000036,66,0,4.19,OM,1709514709
256,nebraska city,40.6767,-95.8592,16.860000000000014,17,0,3.6,US,1709514709
257,palikir - national government center,6.9248,158.1611,30.470000000000027,70,75,5.14,FM,1709514709
258,valledupar,10.4631,-73.2532,27.620000000000005,48,0,5.69,CO,1709514457
259,timbuktu,16.7735,-3.0074,24.939999999999998,9,8,5.53,ML,1709514710
260,glace bay,46.1969,-59.957,5.439999999999998,97,100,1.34,CA,1709514710
261,savonlinna,61.8699,28.88,0.03000000000002956,93,100,0.51,FI,1709514710
262,labasa,-16.4167,179.3833,30.860000000000014,70,95,5.35,FJ,1709514710
263,parambu,-6.2111,-40.6944,22.07000000000005,96,22,1.23,BR,1709514711
264,saint-joseph,-21.3667,55.6167,25.210000000000036,83,99,2.3,RE,1709514711
265,codrington,-38.2667,141.9667,18.420000000000016,48,1,6.74,AU,1709514711
266,cooper's town,26.8667,-77.5167,23.140000000000043,80,98,4.02,BS,1709514711
267,san luis de la loma,17.2706,-100.8939,25.390000000000043,62,2,3.14,MX,1709514711
268,new norfolk,-42.7826,147.0587,15.400000000000034,35,12,1.61,AU,1709514711
269,kununurra,-15.7667,128.7333,31.99000000000001,70,100,1.03,AU,1709514711
270,armidale,-30.5167,151.65,22.879999999999995,56,31,4.33,AU,1709514712
271,cedar rapids,42.0083,-91.6441,23.07000000000005,40,12,7.6,US,1709514092
272,isangel,-19.55,169.2667,33.06,70,75,3.09,VU,1709514712
273,geraldton,-28.7667,114.6,24.230000000000018,64,100,5.66,AU,1709514712
274,pandan,14.0453,124.1694,27.25,75,41,5.23,PH,1709514712
275,atmore,31.0238,-87.4939,19.379999999999995,79,19,2.42,US,1709514712
276,tofol,5.3248,163.0078,30.879999999999995,70,100,7.72,FM,1709514713
277,huarmey,-10.0681,-78.1522,24.120000000000005,79,73,3.71,PE,1709514713
278,chegdomyn,51.1167,133.0167,-14.620000000000005,87,100,0.81,RU,1709514713
279,lodja,-3.4833,23.4333,21.650000000000034,94,100,0.89,CD,1709514713
280,tarauaca,-8.1614,-70.7656,23.640000000000043,98,94,0.97,BR,1709514713
281,aasiaat,68.7098,-52.8699,-20.919999999999987,83,26,4.34,GL,1709514713
282,wuhai,39.6647,106.8122,1.7700000000000387,63,88,1.93,CN,1709514714
283,keningau,5.3378,116.1602,26.890000000000043,71,89,1.51,MY,1709514714
284,juan l. lacaze,-34.4333,-57.4167,15.100000000000023,48,8,4.58,UY,1709514714
285,yershov,51.3513,48.2766,-14.049999999999955,97,62,1.65,RU,1709514714
286,sainyabuli,19.25,101.75,23.82000000000005,63,5,0.89,LA,1709514714
287,tetiiv,49.3767,29.6647,2.090000000000032,76,100,4.0,UA,1709514714
288,klyuchi,52.2667,79.1667,-10.319999999999993,85,100,7.0,RU,1709514714
289,crane,31.3974,-102.3501,21.930000000000007,15,5,5.09,US,1709514715
290,mundri,-6.9558,111.71,25.970000000000027,88,100,1.67,ID,1709514715
291,mirny,62.5353,113.9611,-17.649999999999977,84,100,4.02,RU,1709514680
292,howrah,22.5892,88.3103,22.0,78,75,4.12,IN,1709514715
293,naju,35.0283,126.7175,7.930000000000007,71,100,1.58,KR,1709514715
294,tsengel,49.4783,100.8894,-18.869999999999976,93,22,2.25,MN,1709514715
295,howard springs,-12.497,131.047,30.55000000000001,83,100,1.33,AU,1709514715
296,hotan,37.0997,79.9269,1.7100000000000364,47,100,1.75,CN,1709514716
297,le grau-du-roi,43.5388,4.1356,8.990000000000009,58,0,6.69,FR,1709514716
298,holualoa,19.6228,-155.9522,24.200000000000045,77,0,5.14,US,1709514716
299,yerofey pavlovich,53.9667,121.9667,-14.019999999999982,74,12,1.28,RU,1709514716
300,walvis bay,-22.9575,14.5053,16.720000000000027,86,8,1.38,NA,1709514716
301,hilton,43.2881,-77.7933,9.700000000000045,90,100,4.05,US,1709514716
302,casablanca,33.5928,-7.6192,15.740000000000009,72,0,1.79,MA,1709514717
303,saint-pierre,-21.3393,55.4781,25.82000000000005,89,0,2.06,RE,1709514717
304,cururupu,-1.8283,-44.8683,23.980000000000018,94,100,1.23,BR,1709514717
305,karratha,-20.7377,116.8463,30.220000000000027,66,53,1.47,AU,1709514717
306,rockland,41.1668,-74.0496,16.350000000000023,76,82,0.45,US,1709514717
307,ola,59.5833,151.2833,-7.139999999999986,68,100,2.58,RU,1709514717
308,nchelenge,-9.3451,28.734,21.180000000000007,86,100,1.25,ZM,1709514717
309,touros,-5.1989,-35.4608,26.450000000000045,84,6,2.46,BR,1709514718
310,constantia,44.1833,28.65,5.390000000000043,73,87,1.82,RO,1709514718
311,kruisfontein,-34.0033,24.7314,21.05000000000001,98,100,1.43,ZA,1709514718
312,dawson creek,55.7666,-120.2362,-20.19999999999999,59,0,4.12,CA,1709514718
313,manta,-0.95,-80.7333,26.879999999999995,89,75,4.92,EC,1709514718
314,borkum,53.5809,6.6915,7.970000000000027,91,37,3.2,DE,1709514719
315,masuguru,-11.3667,38.4167,23.480000000000018,98,100,0.26,TZ,1709514719
316,dinguiraye,11.3,-10.7167,26.720000000000027,12,100,0.7,GN,1709514719
317,puerto santa,-8.9906,-78.6456,22.960000000000036,82,85,3.53,PE,1709514719
318,conde,-7.2597,-34.9075,27.700000000000045,78,0,2.57,BR,1709514719
319,mizdah,31.4451,12.9801,14.450000000000045,27,0,3.63,LY,1709514719
320,kegeyli shahar,42.7767,59.6078,-6.949999999999989,62,0,3.86,UZ,1709514720
321,mugumu,-1.85,34.7,17.150000000000034,91,99,0.99,TZ,1709514720
322,namdrik,5.5994,168.1028,27.970000000000027,79,76,9.88,MH,1709514720
323,port douglas,-16.4833,145.4667,26.640000000000043,88,100,0.73,AU,1709514720
324,andergrove,-21.0833,149.1833,30.910000000000025,71,74,3.31,AU,1709514720
325,thabazimbi,-24.5917,27.4116,20.360000000000014,46,5,2.8,ZA,1709514721
326,bang bo district,13.5833,100.8167,31.310000000000002,77,20,4.63,TH,1709514721
327,pozo del molle,-32.0186,-62.9198,19.49000000000001,63,55,3.15,AR,1709514721
328,roma,43.2128,-75.4557,8.060000000000002,97,100,0.0,US,1709514721
329,umea,63.8284,20.2597,-0.03999999999996362,100,100,0.51,SE,1709514721
330,nagqu,31.5,92.0,-5.310000000000002,54,100,2.49,CN,1709514722
331,petropavlovsk-kamchatsky,53.0452,158.6483,-1.669999999999959,37,40,8.0,RU,1709514722
332,christiana,-27.914,25.1611,20.650000000000034,47,97,2.82,ZA,1709514722
333,palmer,42.1584,-72.3287,12.230000000000018,79,75,2.06,US,1709514722
334,changchun,43.88,125.3228,-6.42999999999995,57,0,4.18,CN,1709514722
335,hithadhoo,-0.6,73.0833,27.480000000000018,77,100,3.15,MV,1709514723
336,port lincoln,-34.7333,135.8667,20.439999999999998,66,100,7.43,AU,1709514723
337,sarkand,45.41,79.9186,-11.939999999999998,69,45,3.49,KZ,1709514723
338,reszel,54.0504,21.1458,1.6100000000000136,83,7,4.86,PL,1709514723
339,udachny,66.4167,112.4,-18.369999999999976,98,99,1.32,RU,1709514723
340,ambon,-3.6954,128.1814,32.04000000000002,71,20,1.54,ID,1709514724
341,mersa matruh,31.3525,27.2453,14.560000000000002,75,0,1.53,EG,1709514724
342,richards bay,-28.783,32.0377,22.660000000000025,95,2,3.41,ZA,1709514724
343,kitgum,3.2783,32.8867,25.160000000000025,44,36,0.57,UG,1709514724
344,alofi,-19.0595,-169.9187,27.379999999999995,76,24,7.46,NU,1709514724
345,prado,-17.3411,-39.2208,24.850000000000023,88,74,1.97,BR,1709514724
346,breitungen,50.7667,10.3333,6.590000000000032,90,10,0.71,DE,1709514725
347,opuwo,-18.0607,13.84,21.390000000000043,62,41,1.23,NA,1709514725
348,international falls,48.6011,-93.411,3.1000000000000227,93,100,6.69,US,1709514725
349,kone,-21.0595,164.8658,32.97000000000003,55,100,1.07,NC,1709514725
350,weiser,44.251,-116.9693,4.920000000000016,79,92,0.89,US,1709514725
351,yorosso,12.3536,-4.7761,29.180000000000007,16,55,0.89,ML,1709514726
352,funafuti,-8.5243,179.1942,32.0,74,100,2.57,TV,1709514726
353,puerto san jose,13.9256,-90.8244,27.379999999999995,67,9,4.77,GT,1709514726
354,cafayate,-26.073,-65.9761,19.310000000000002,89,88,1.44,AR,1709514726
355,aioun,16.6614,-9.6149,23.660000000000025,11,0,5.58,MR,1709514726
356,gobabis,-22.45,18.9667,21.610000000000014,36,6,2.43,NA,1709514726
357,north bay,46.3168,-79.4663,3.0,95,100,3.31,CA,1709514727
358,weno,7.4515,151.8468,27.480000000000018,70,100,7.31,FM,1709514727
359,phra phutthabat,14.7253,100.7954,31.54000000000002,84,46,3.0,TH,1709514727
360,al bayda',32.7627,21.7551,9.82000000000005,66,0,3.34,LY,1709514728
361,cabedelo,-6.9811,-34.8339,28.370000000000005,79,16,4.16,BR,1709514728
362,anqing,30.5092,117.0506,10.450000000000045,82,100,0.86,CN,1709514728
363,rio do sul,-27.2142,-49.6431,22.439999999999998,99,89,0.6,BR,1709514615
364,rongelap,11.1635,166.8941,26.400000000000034,79,100,9.99,MH,1709514729
365,horta,38.5333,-28.6333,12.230000000000018,63,89,1.34,PT,1709514729
366,maracaibo,10.6317,-71.6406,27.390000000000043,70,0,6.99,VE,1709514672
367,kirensk,57.7853,108.1119,-11.689999999999998,94,100,1.34,RU,1709514729
368,general acha,-37.377,-64.6043,18.590000000000032,28,0,2.75,AR,1709514729
369,broken hill,-31.95,141.4333,24.140000000000043,28,23,5.44,AU,1709514729
370,kawambwa,-9.7915,29.0791,17.53000000000003,99,100,0.6,ZM,1709514730
371,ikalamavony,-21.15,46.5833,18.439999999999998,85,100,2.39,MG,1709514730
372,la ronge,55.1001,-105.2842,-13.879999999999995,61,100,8.75,CA,1709514730
373,taunsa,30.7048,70.6505,8.79000000000002,35,2,3.59,PK,1709514730
374,nemuro,43.3236,145.575,-2.9399999999999977,64,37,3.41,JP,1709514730
375,verkhnevilyuysk,63.4453,120.3167,-17.819999999999965,95,100,2.62,RU,1709514730
376,cortez,37.3489,-108.5859,10.420000000000016,25,0,7.2,US,1709514731
377,olinda,-8.0089,-34.8553,28.850000000000023,74,20,3.09,BR,1709514731
378,dauphin,51.1494,-100.0502,-9.919999999999959,92,100,7.2,CA,1709514731
379,adrar,20.5022,-10.0711,16.52000000000004,31,99,5.05,MR,1709514731
380,keflavik,64.0049,-22.5624,0.2400000000000091,69,75,6.69,IS,1709514731
381,malango,-2.9627,119.9001,24.170000000000016,90,100,0.91,ID,1709514731
382,kushima,31.4583,131.2333,13.04000000000002,49,17,0.9,JP,1709514731
383,prince rupert,54.3161,-130.3201,-0.12000000000000455,44,31,2.58,CA,1709514732
384,ivano-frankove,49.9167,23.7333,5.410000000000025,91,100,4.04,UA,1709514732
385,al bawiti,28.3492,28.8659,13.710000000000036,54,2,1.78,EG,1709514732
386,inhambane,-23.865,35.3833,24.53000000000003,87,0,2.51,MZ,1709514732
387,zelenoborskiy,66.845,32.3622,-5.569999999999993,94,12,2.99,RU,1709514459
388,ugoofaaru,5.6667,73.0,27.610000000000014,77,100,4.01,MV,1709514733
389,kolokani,13.5728,-8.0339,24.930000000000007,13,100,4.11,ML,1709514733
390,kingston,17.997,-76.7936,26.53000000000003,81,20,6.69,JM,1709514549
391,linxia chengguanzhen,35.6003,103.2064,-0.15999999999996817,78,71,1.49,CN,1709514733
392,skovorodino,53.9833,123.9167,-17.22999999999999,79,14,1.57,RU,1709514733
393,eureka,40.8021,-124.1637,9.400000000000034,84,66,0.45,US,1709514734
394,burela de cabo,43.65,-7.4,11.760000000000048,86,100,5.41,ES,1709514734
395,altai,46.3722,96.2583,-19.609999999999985,77,85,1.94,MN,1709514734
396,lospalos,-8.5186,127.0025,28.83000000000004,67,100,0.69,TL,1709514734
397,stow,41.1595,-81.4404,12.830000000000041,78,0,1.54,US,1709514735
398,ad dawadimi,24.5077,44.3924,13.640000000000043,27,2,4.3,SA,1709514735
399,remire-montjoly,4.9167,-52.2667,25.02000000000004,94,40,1.54,GF,1709514735
400,usinsk,65.9939,57.5281,-1.6299999999999955,97,100,8.05,RU,1709514735
401,energetik,51.7445,58.7934,-12.939999999999998,96,25,2.32,RU,1709514735
402,malabar,-33.9667,151.25,23.620000000000005,62,75,8.75,AU,1709514736
403,belyy yar,53.6039,91.3903,-21.059999999999974,84,91,0.0,RU,1709514736
404,buka,40.8108,69.1986,-0.839999999999975,85,100,1.15,UZ,1709514736
405,melito di porto salvo,37.9222,15.7714,14.740000000000009,87,86,1.86,IT,1709514589
406,uray,60.1247,64.7758,-7.849999999999966,97,100,2.24,RU,1709514737
407,barreiro do jaiba,-15.6167,-43.6,23.58000000000004,84,93,1.32,BR,1709514738
408,yuzhno-kurilsk,44.0306,145.8556,-5.349999999999966,82,100,1.86,RU,1709514738
409,barra do garcas,-15.89,-52.2567,22.55000000000001,96,100,2.91,BR,1709514738
410,kongolo,-5.3833,27.0,21.410000000000025,89,100,0.25,CD,1709514738
411,swakopmund,-22.6833,14.5333,16.660000000000025,87,13,2.68,NA,1709514738
412,chapada dos guimaraes,-15.4606,-55.7497,20.810000000000002,94,100,0.94,BR,1709514739
413,villa vicente guerrero,19.1194,-98.1708,18.060000000000002,30,9,3.52,MX,1709514739
414,hobyo,5.3505,48.5268,27.230000000000018,82,100,6.84,SO,1709514740
415,krasnoarmeysk,51.0239,45.6969,-12.579999999999984,98,71,1.96,RU,1709514740
416,gizo,-8.103,156.8419,29.379999999999995,72,56,3.92,SB,1709514740
417,condoto,5.0935,-76.6497,23.83000000000004,97,100,1.03,CO,1709514740
418,sinop,41.7711,34.8709,5.960000000000036,91,86,1.4,TR,1709514510
419,natal,-5.795,-35.2094,28.360000000000014,78,40,2.06,BR,1709514713
420,ulladulla,-35.35,150.4667,19.49000000000001,55,21,4.96,AU,1709514741
421,san fernando de apure,7.8878,-67.4724,29.700000000000045,37,0,1.92,VE,1709514741
422,novodvinsk,64.4165,40.8122,-0.12000000000000455,95,100,4.29,RU,1709514742
423,badger,64.8,-147.5333,-10.859999999999957,45,20,2.57,US,1709514742
424,tolanaro,-25.0319,46.9987,24.439999999999998,88,40,5.75,MG,1709514742
425,melfort,52.8667,-104.6177,-12.579999999999984,95,100,5.68,CA,1709514742
426,waingapu,-9.6567,120.2641,29.03000000000003,74,100,0.7,ID,1709514742
427,santa ana,33.7456,-117.8678,16.340000000000032,64,75,5.14,US,1709514541
428,tamasi,46.6333,18.2833,7.53000000000003,73,23,2.01,HU,1709514743
429,sterling,39.0062,-77.4286,14.010000000000048,82,20,1.54,US,1709514520
430,yucheng,34.9289,116.4653,8.080000000000041,67,100,4.99,CN,1709514743
431,khandyga,62.6667,135.6,-21.799999999999983,95,100,0.21,RU,1709514743
432,kavieng,-2.5744,150.7967,28.060000000000002,77,57,2.6,PG,1709514744
433,balqash,46.8481,74.995,-17.70999999999998,96,12,3.12,KZ,1709514744
434,suva,-18.1416,178.4415,31.710000000000036,70,75,5.66,FJ,1709514744
435,haflong,25.1833,93.0333,17.260000000000048,68,13,0.82,IN,1709514745
436,curuca,-0.7289,-47.8481,24.860000000000014,90,100,1.85,BR,1709514745
437,bridlington,54.0831,-0.1919,3.900000000000034,91,100,0.45,GB,1709514745
438,viedma,-40.8135,-62.9967,14.78000000000003,32,5,1.77,AR,1709514745
439,leh,34.1667,77.5833,-17.70999999999998,90,73,0.53,IN,1709514745
440,bonny,4.4522,7.1681,28.010000000000048,81,46,2.89,NG,1709514746
441,fort st. john,56.2499,-120.8529,-19.42999999999998,84,100,3.08,CA,1709514746
442,tazovsky,67.4667,78.7,-22.879999999999967,100,93,3.15,RU,1709514746
443,warrnambool,-38.3833,142.4833,16.970000000000027,54,9,6.64,AU,1709514746
444,sarangani,5.4033,125.4636,26.720000000000027,79,11,10.43,PH,1709514747
445,karbala,32.616,44.0249,14.28000000000003,51,9,4.2,IQ,1709514747
446,mirnyy,62.5353,113.9611,-17.649999999999977,84,100,4.02,RU,1709514747
447,santa terezinha,-29.9002,-50.0904,22.910000000000025,90,100,5.78,BR,1709514747
448,broome,42.2506,-75.833,9.28000000000003,90,100,2.57,US,1709514747
449,sao pedro do sul,-29.6206,-54.1789,19.980000000000018,93,100,5.79,BR,1709514714
450,pokhara,28.2333,83.9833,11.230000000000018,62,100,3.18,NP,1709514747
451,bonthe,7.5264,-12.505,25.810000000000002,87,100,2.04,SL,1709514748
452,nova vicosa,-17.8919,-39.3719,25.470000000000027,84,4,2.44,BR,1709514748
453,zdvinsk,54.7021,78.661,-8.71999999999997,94,100,6.73,RU,1709514748
454,taoudenni,22.6783,-3.9836,22.03000000000003,13,0,4.03,ML,1709514748
455,edd,13.9297,41.6925,26.760000000000048,78,68,2.03,ER,1709514748
456,inirida,3.8653,-67.9239,27.420000000000016,63,26,1.53,CO,1709514748
457,safotu,-13.4513,-172.4018,29.04000000000002,83,100,7.72,WS,1709514749
458,zeya,53.75,127.2667,-13.620000000000005,70,100,1.2,RU,1709514749
459,inongo,-1.95,18.2667,23.340000000000032,78,99,1.18,CD,1709514749
460,linhares,-19.3911,-40.0722,22.78000000000003,89,3,1.32,BR,1709514749
461,itoman,26.1247,127.6694,22.430000000000007,80,75,5.14,JP,1709514749
462,awjilah,29.1081,21.2869,16.629999999999995,27,52,4.1,LY,1709514749
463,saipan,15.1355,145.701,26.390000000000043,89,75,6.69,MP,1709514750
464,pemba,-12.974,40.5178,25.390000000000043,94,75,2.57,MZ,1709514750
465,guaruja,-23.9931,-46.2564,27.129999999999995,26,0,1.34,BR,1709514750
466,al basrah al qadimah,30.4972,47.8149,15.950000000000045,77,0,3.09,IQ,1709514750
467,anadyr,64.75,177.4833,-10.71999999999997,85,75,2.0,RU,1709514719
468,manismata,-2.4667,111.0333,27.129999999999995,83,95,1.5,ID,1709514750
469,summerside,46.3959,-63.7876,5.939999999999998,99,100,4.97,CA,1709514750
470,saint-francois,46.4154,3.9054,4.689999999999998,87,0,2.06,FR,1709514751
471,shegaon,20.7833,76.6833,19.08000000000004,27,3,3.16,IN,1709514751
472,sandnessjoen,66.0217,12.6316,5.2900000000000205,82,70,8.59,NO,1709514751
473,oranjemund,-28.55,16.4333,18.460000000000036,89,100,2.27,NA,1709514751
474,medina,24.4686,39.6142,20.24000000000001,28,0,3.09,SA,1709514751
475,antalaha,-14.9003,50.2788,26.04000000000002,92,100,3.04,MG,1709514752
476,krasnyy chikoy,50.3643,108.7512,-14.509999999999991,94,100,0.75,RU,1709514752
477,pitimbu,-7.4706,-34.8086,28.33000000000004,78,21,4.31,BR,1709514752
478,divicani,44.3667,17.3261,5.170000000000016,87,82,2.45,BA,1709514752
479,nagato,34.3833,131.2,10.810000000000002,61,100,3.9,JP,1709514752
480,beloyarskiy,63.7119,66.6722,-16.66999999999996,99,100,1.34,RU,1709514558
481,sao vicente,-23.9631,-46.3919,27.930000000000007,49,1,1.34,BR,1709514518
482,bereznik,62.8551,42.7072,0.34000000000003183,97,100,4.72,RU,1709514753
483,nar'yan-mar,67.6713,53.087,-6.609999999999957,95,100,7.15,RU,1709514753
484,lusaka,-15.4067,28.2871,18.890000000000043,84,91,1.82,ZM,1709514540
485,labrador city,52.9463,-66.9114,-17.120000000000005,62,13,3.89,CA,1709514610
486,ishim,56.1128,69.4902,-2.1999999999999886,93,100,4.47,RU,1709514753
487,jinka,5.65,36.65,20.879999999999995,55,21,1.11,ET,1709514753
488,christchurch,-43.5333,172.6333,24.110000000000014,34,100,7.72,NZ,1709514754
489,berdigestyakh,62.0989,126.6992,-16.769999999999982,93,100,2.36,RU,1709514754
490,betong,5.7743,101.0723,24.160000000000025,81,99,0.91,TH,1709514754
491,albu kamal,34.45,40.9186,9.629999999999995,56,7,6.51,SY,1709514754
492,panjab,34.388,67.0233,-21.139999999999986,98,54,1.16,AF,1709514754
493,guarapari,-20.6667,-40.4975,23.410000000000025,86,13,1.19,BR,1709514754
494,jha-jha,24.7667,86.3667,19.08000000000004,73,54,0.64,IN,1709514755
495,bada,51.392,109.8717,-15.149999999999977,86,26,1.81,RU,1709514755
496,ta`u,-14.2336,-169.5144,28.82000000000005,78,97,7.27,AS,1709514755
497,nelson bay,-32.7167,152.15,23.390000000000043,66,96,3.58,AU,1709514755
498,cova figueira,14.8905,-24.2934,19.379999999999995,78,25,8.0,CV,1709514755
499,saint albans,51.75,-0.3333,4.020000000000039,92,20,1.54,GB,1709514756
500,bria,6.5423,21.9863,24.83000000000004,48,0,1.73,CF,1709514756
501,concepcion del oro,24.6333,-101.4167,18.08000000000004,16,100,2.05,MX,1709514756
502,twon-brass,4.3151,6.2418,28.200000000000045,81,10,4.18,NG,1709514756
503,st. john's,47.5649,-52.7093,4.980000000000018,96,100,9.77,CA,1709514756
504,maiurno,13.4167,33.6667,25.310000000000002,12,93,4.88,SD,1709514756
505,ban dan lan hoi,17.0068,99.575,28.77000000000004,39,2,3.08,TH,1709514757
506,dudinka,69.4058,86.1778,-9.069999999999993,92,100,10.28,RU,1709514757
507,ipiales,0.8302,-77.6496,11.610000000000014,99,100,1.0,CO,1709514757
508,port saint john's,-31.6229,29.5448,22.610000000000014,90,89,2.3,ZA,1709514757
509,erdenet,49.0333,104.0833,-18.829999999999984,99,85,0.7,MN,1709514758
510,villa gesell,-37.2639,-56.973,16.140000000000043,53,0,4.94,AR,1709514758
511,wotje,9.4543,170.2367,27.05000000000001,76,100,9.62,MH,1709514758
512,codajas,-3.8367,-62.0569,23.560000000000002,98,78,1.05,BR,1709514758
513,shingu,33.7333,135.9833,12.230000000000018,50,99,5.28,JP,1709514758
514,mana,5.6592,-53.7767,25.900000000000034,77,50,3.69,GF,1709514758
515,sorong,-0.8833,131.25,28.420000000000016,73,20,0.79,ID,1709514758
516,naze,28.3667,129.4833,16.220000000000027,70,97,4.25,JP,1709514759
517,bruchhausen-vilsen,52.8333,9.0,6.910000000000025,88,100,2.6,DE,1709514759
518,darbhanga,26.1667,85.9,17.120000000000005,76,77,2.23,IN,1709514759
519,ambodifotatra,-16.9833,49.85,26.310000000000002,86,100,0.53,MG,1709514759
520,rudbar,30.15,62.6,6.310000000000002,42,0,3.32,AF,1709514759
521,sucre,-19.0333,-65.2627,14.230000000000018,79,100,0.75,BO,1709514759
522,bhamo,24.2667,97.2333,19.600000000000023,51,1,0.24,MM,1709514760
523,timimoun,29.2639,0.231,17.410000000000025,20,0,2.15,DZ,1709514760
524,island harbour,50.724,-1.2758,3.990000000000009,91,12,0.45,GB,1709514760
525,callao,-12.0667,-77.15,25.160000000000025,73,0,5.66,PE,1709514752
526,tallulah,32.4085,-91.1868,23.03000000000003,73,0,3.6,US,1709514760
527,kailua-kona,19.6406,-155.9956,26.27000000000004,77,0,5.14,US,1709514760
528,malpica,43.3228,-8.8105,12.960000000000036,70,100,7.6,ES,1709514760
529,lagunas,-5.2269,-75.6753,24.010000000000048,88,49,1.12,PE,1709514761
530,smithers,54.7804,-127.1743,-10.089999999999975,64,100,1.59,CA,1709514761
531,tindouf,27.6711,-8.1474,13.03000000000003,67,0,4.33,DZ,1709514761
532,irtyshsk,53.3333,75.4572,-8.079999999999984,93,100,7.04,KZ,1709514761
533,mar del plata,-38.0023,-57.5575,16.04000000000002,55,0,2.68,AR,1709514761
534,nefta,33.8731,7.8777,13.890000000000043,31,6,8.58,TN,1709514761
535,nam som,17.7704,102.1895,28.010000000000048,57,4,1.64,TH,1709514761
536,guiglo,6.5456,-7.4966,22.82000000000005,89,100,0.91,CI,1709514762
537,taulaga,-11.0553,-171.0883,29.05000000000001,77,39,6.19,AS,1709514762
538,abbeville,50.1,1.8333,2.3600000000000136,90,40,2.59,FR,1709514762
539,aripuana,-9.1667,-60.6333,22.79000000000002,99,100,0.72,BR,1709514762
540,remiremont,48.0175,6.5882,5.100000000000023,97,100,2.21,FR,1709514762
541,umba,66.6871,34.3429,-6.109999999999957,99,55,2.18,RU,1709514762
542,kuqa,41.7278,82.9364,0.8700000000000045,43,96,1.17,CN,1709514762
543,heyuan,23.7333,114.6833,17.220000000000027,84,100,0.74,CN,1709514763
544,hamamatsu,34.7,137.7333,10.010000000000048,63,6,5.81,JP,1709514763
545,hovd,48.0056,91.6419,-12.239999999999952,64,39,1.39,MN,1709514763
546,parkes,-33.1333,148.1833,27.49000000000001,28,0,3.24,AU,1709514476
547,newman,37.3138,-121.0208,14.129999999999995,68,61,4.02,US,1709514763
548,tirlyanskiy,54.2109,58.5806,-10.449999999999989,97,91,1.78,RU,1709514763
549,duba,27.3513,35.6901,21.08000000000004,41,0,2.39,SA,1709514763
550,quibala,-10.7337,14.98,17.80000000000001,97,62,0.95,AO,1709514764
551,filey,54.21,-0.2892,3.910000000000025,89,100,2.45,GB,1709514764
552,woolgoolga,-30.1106,153.2007,23.930000000000007,75,49,7.04,AU,1709514764
553,raton,36.9034,-104.4391,12.340000000000032,16,0,9.77,US,1709514764
554,kapuskasing,49.4169,-82.4331,-2.259999999999991,93,100,5.36,CA,1709514764
555,sitangkai,4.6628,119.3928,27.189999999999998,80,52,3.72,PH,1709514764
556,pingnan,23.5543,110.3976,12.950000000000045,97,100,1.6,CN,1709514765
557,saraqib,35.8645,36.8059,8.720000000000027,54,88,1.16,SY,1709514765
558,zaysan,47.4667,84.8667,-17.18999999999997,83,3,1.95,KZ,1709514765
559,port isabel,26.0734,-97.2086,24.04000000000002,89,100,1.34,US,1709514300
560,burumburum,11.3911,8.7234,24.160000000000025,16,86,0.93,NG,1709514765
561,vernon,50.2581,-119.2691,3.2000000000000455,64,100,1.79,CA,1709514765
562,revda,56.801,59.9303,-2.2199999999999704,94,100,4.05,RU,1709514766
563,inarajan village,13.2736,144.7484,31.54000000000002,80,26,7.79,GU,1709514766
564,rhyl,53.3196,-3.4886,3.2800000000000296,93,8,0.45,GB,1709514766
565,kalkaman,51.9525,76.0211,-8.67999999999995,87,100,8.66,KZ,1709514766
566,sabha,27.0377,14.4283,18.400000000000034,11,0,3.62,LY,1709514766
567,priozersk,61.0393,30.1291,-0.5099999999999909,82,44,0.69,RU,1709514766
568,miguel ahumada,30.6167,-106.5167,20.08000000000004,17,0,7.91,MX,1709514766
569,motupe,-6.1519,-79.7142,26.350000000000023,61,100,3.07,PE,1709514767
570,graaff-reinet,-32.2522,24.5308,22.730000000000018,57,100,3.17,ZA,1709514767
571,northam,51.0333,-4.2167,4.25,95,20,2.26,GB,1709514767
572,kudahuvadhoo,2.6708,72.8944,27.980000000000018,74,100,3.84,MV,1709514767
573,shakhtersk,48.0625,38.5167,0.3900000000000432,70,100,5.9,UA,1709514767
574,stavanger,58.9701,5.7333,9.180000000000007,64,100,3.6,NO,1709514767
575,wajir,1.7471,40.0573,26.720000000000027,61,27,6.57,KE,1709514767
576,iwon-up,40.3231,128.6553,0.5,33,0,0.55,KP,1709514768
577,motueka,-41.1333,173.0167,20.05000000000001,61,40,3.65,NZ,1709514768
578,lazaro cardenas,17.9583,-102.2,24.730000000000018,67,71,3.15,MX,1709514768
579,gereida,11.2811,25.1414,23.470000000000027,14,4,5.26,SD,1709514768
580,lethem,3.3803,-59.7968,31.03000000000003,46,100,1.44,GY,1709514768
581,kuragino,53.8975,92.6725,-15.139999999999986,98,100,1.52,RU,1709514768
582,albertina,-22.2008,-46.6158,19.590000000000032,79,0,1.99,BR,1709514768
583,murun-kuren,49.6342,100.1625,-20.899999999999977,95,24,1.13,MN,1709514497
584,cheney,47.4874,-117.5758,3.4700000000000273,63,75,4.12,US,1709514769
585,mrakovo,52.7161,56.6244,-6.7099999999999795,97,100,0.78,RU,1709514769
586,mochudi,-24.4167,26.15,19.840000000000032,41,4,2.9,BW,1709514769
587,hanamaki,39.3833,141.1167,0.2400000000000091,74,97,3.94,JP,1709514769
588,cidreira,-30.1811,-50.2056,22.870000000000005,83,100,6.19,BR,1709514769
589,fundao,-19.9341,-40.4047,25.74000000000001,92,10,0.99,BR,1709514769
590,sungailiat,-1.85,106.1333,27.390000000000043,84,96,0.22,ID,1709514770
591,mbandaka,0.0487,18.2603,24.200000000000045,76,93,1.18,CD,1709514770
592,khor,47.8861,134.9464,-14.129999999999995,88,75,5.07,RU,1709514770
593,oriximina,-1.7656,-55.8661,24.07000000000005,95,100,0.5,BR,1709514770
594,bayanhongor,46.7167,100.1167,-18.75999999999999,95,100,1.49,MN,1709514770
595,daman,20.4167,72.85,19.590000000000032,55,0,2.24,IN,1709514771
596,alaghsas,17.0187,8.0168,24.32000000000005,9,0,4.04,NE,1709514771
597,dzerzhinskoye,56.8344,95.2283,-11.25,90,100,1.82,RU,1709514771
598,korla,41.7597,86.1469,0.03000000000002956,31,100,2.62,CN,1709514771
599,bushehr,28.9684,50.8385,17.77000000000004,65,100,3.66,IR,1709514771
600,yorkshire,38.7932,-77.4478,14.25,83,20,0.0,US,1709514771
601,homestead meadows south,31.811,-106.1643,21.730000000000018,14,1,8.28,US,1709514771
602,lenger,42.183,69.8839,-2.3100000000000023,77,21,2.79,KZ,1709514771
603,darasun,51.6667,114.0,-16.70999999999998,86,64,1.51,RU,1709514772
604,dabhol,17.6,73.1667,18.890000000000043,81,7,3.19,IN,1709514772
605,formosa do rio preto,-11.0483,-45.1931,22.53000000000003,96,100,1.39,BR,1709514772
606,selfoss,63.9331,-20.9971,-1.6399999999999864,80,100,6.02,IS,1709514772
607,keren,15.7778,38.4581,19.150000000000034,73,52,2.05,ER,1709514772
608,vernal,40.4555,-109.5287,0.8400000000000318,47,100,6.17,US,1709514772
